id,site,country,long,lat,coord_precision,chron_association,arch_association,find_context,procurement_method,stratigraphy,material_count,relative_dating,faunal_association,absolute_dating,publication_status,total_score,comment,reference
1,Obourg_st_macaire,BE,4.009292,50.474145,imprecise,uncertain,creswellian,excavation,2,1,3,4,0,0,2,12,"Shouldered point (n=5), Zinken (n=22), Backed piece (n=10), tool total (n=186). Trapezoidal backed points that if found in the UK would have been mappes as Creswellian (Barton et al. 2003:637)",Barton et al. 2003; Burdukiewicz 1986 after Letocart 1970
2,Zolder,BE,5.309947,51.022629,imprecise,uncertain,creswellian,unknown,1,1,1,1,0,0,1,5,Trapezoidal backed points that if found in the UK would have been mappes as Creswellian (Barton et al. 2003:637),"Barton et al. 2003; Schwabedissen 1954: pl. 71, pp. 5-7)"
3,Lommel_IC,BE,5.313099,51.229624,imprecise,uncertain,creswellian,surface,1,1,1,1,0,0,1,5,Kramer et al. (1985:68) mentions that Wouters (1982) mentions creswellian artefacts from surface sites,Kramer et al. 1985; Wouters 1982
4,Presle,BE,4.578145,50.383389,imprecise,uncertain,creswellian,unknown,1,1,1,1,1,2,2,9,"mixed, problematic, creswell points, radiocarbon date that indicates creswellian, but problematic sample","Barton et al. 2003; Charles 1998, 1999"
5,Kovaltsy,BY,23.960251,53.374330,imprecise,uncertain,hamburgian,excavation,3,3,4,2,1,3,2,18,"Lithic and faunal (mostly mammoth, but fish (pike) and birds too) material from discrete stratigraphic layer, ca. 6500 lithics (blade-end scrapers with lateral retouch, possible zinken)",Stancikaité et al. 2011
6,Pribor_8,BY,30.762442,52.409819,imprecise,uncertain,hamburgian,unknown,1,1,1,1,0,0,1,5,Shouldered points? As described by Bobrowski & Sobkowiak-Tabaka (2006),Bobrowski & Sobkowiak-Tabaka 2006
7,Odrizin_Lake,BY,26.698798,53.125012,imprecise,uncertain,hamburgian,surface,1,1,0,1,0,0,1,4,Shouldered point (n=1),Bobrowski & Sobkowiak-Tabaka 2006
8,Skrobicze_107,BY,23.796993,52.125813,imprecise,uncertain,hamburgian,surface,1,1,0,1,0,0,1,4,Shouldered point (n=1),Bobrowski & Sobkowiak-Tabaka 2006
9,Todtshorn,DE,9.779097,53.212817,imprecise,uncertain,hamburgian,surface,1,1,0,1,0,0,2,5,Shouldered point (n=1),Breest 2004
10,Grosswusterwitz,DE,12.368921,52.373581,imprecise,uncertain,hamburgian,surface,1,1,0,1,1,0,1,5,"Worked piece of reindeer-antler, lost","Mey 1960; Terberger & Lübke 2005, 2007"
11,AHR_LA_149_Krattwisch_2,DE,10.203652,53.638988,precise,uncertain,hamburgian,excavation,2,1,1,2,0,0,1,7,"Test-excavation by Alfred Rust (no year), numerous artefacts (incl. Zinken and scrapers on blades).",Clausen & Guldin 2017
12,Meckelfeld,DE,10.655691,53.735082,imprecise,uncertain,hamburgian,unknown,0,0,0,0,0,0,0,0,Cannot find any other information on this site other than it is listed as a Hamburgian site by Tromnau pp. 22,Tromnau 1974 (schalkholz)
13,Ronneburg,DE,10.863315,53.645567,imprecise,uncertain,hamburgian,unknown,0,0,0,0,0,0,0,0,Cannot find any other information on this site other than it is listed as a Hamburgian site by Tromnau pp. 22,Tromnau 1974 (schalkholz)
14,Lachendorf,DE,10.223361,52.621024,imprecise,pulse_1,classic_hamburgian,surface,1,1,2,4,0,0,2,10,"Shouldered points, zinken, scrapers with lateral retouch, dual-platform single-faced core, palimpsest (many backed points ‘Federmesser*)",Breest 2000
15,Dageforde,DE,9.948214,52.840822,imprecise,uncertain,hamburgian,surface,1,1,3,3,0,0,2,10,"Shouldered points (looks doubtful), zinken, scrapers. Palimpsest (backed points and mesolithic trapezes, core axes)",Breest 2000; Breest et al. 1999
16,Bornstorf,DE,10.071253,52.869411,imprecise,uncertain,hamburgian,surface,1,1,2,4,0,0,2,10,"Shouldered points (doubtful), zinken, scrapers with lateral retouch, dual-platform single-faced core, blade with en epéron",Breest 2000
17,Beckedorf,DE,10.088357,52.810661,imprecise,pulse_1,classic_hamburgian,surface,1,1,2,4,0,0,2,10,"Shouldered points, zinken, scrapers with lateral retouch, blade with en epéron (counts as +1 in ‘relative_dating’)",Breest 2000
18,Wittlohe,DE,9.350755,52.862074,precise,uncertain,hamburgian,excavation,3,2,3,3,0,0,2,13,Doubtful of this being Hamburgian,Breest & Oldenburg 2000
19,Gifhorn_Kastorf_II,DE,10.518415,52.527695,imprecise,uncertain,hamburgian,surface,1,1,0,1,0,0,1,4,Shouldered point (n=1),Burdukiewicz 1986; Schwarz-Mackensien 1978
20,Uetze,DE,10.191931,52.450103,imprecise,uncertain,hamburgian,surface,1,1,0,1,0,0,1,4,Shouldered point (n=1),Burdukiewicz 1986; Schwarz-Mackensien 1978
21,Ohof_Bossel,DE,10.321332,52.448447,imprecise,uncertain,hamburgian,surface,1,1,0,1,0,0,1,4,Shouldered point (n=1),Burdukiewicz 1986; Schwarz-Mackensien 1978
22,Duhnen_Twellbergsmoor,DE,8.637879,53.880391,imprecise,uncertain,hamburgian,surface,1,1,1,3,0,0,1,7,"Shouldered point (n=1), scraper on blade with lateral retouch (n=3), Zinken (n=?)",Tromnau 1975
23,Riesberg,DE,10.789040,52.294126,imprecise,uncertain,hamburgian,surface,1,1,0,1,0,0,1,4,Shouldered point (n=1),Tromnau 1975; Taute 1959
24,Neuenkirchen,DE,9.698491,53.020384,imprecise,uncertain,hamburgian,surface,1,1,0,1,0,0,1,4,Shouldered point (n=1),Tromnau 1975; Taute 1959
25,Agathenburg,DE,9.523016,53.559612,imprecise,uncertain,hamburgian,surface,1,1,1,1,0,0,1,5,"Zinken (n=1), scrapers (n=?)",Tromnau 1975
26,Dollern,DE,9.539519,53.538602,imprecise,uncertain,hamburgian,surface,1,1,1,2,0,0,1,6,"Shouldered point (n=2), Zinken (n=1), scrapers and burins (n=?)",Tromnau 1975
27,Buchholz_buensen,DE,9.906197,53.349271,imprecise,uncertain,hamburgian,excavation,2,1,1,2,0,0,1,7,"Shouldered point (n=3 (1=fragment)), Zinken (n=1), only mentioned by Tromnau",Tromnau 1975: 86
28,Glusingen,DE,10.014352,53.405211,imprecise,uncertain,hamburgian,surface,1,1,1,3,0,0,2,8,"Fragment of shouldered point (n=1), Zinken (n=1), scraper with lateral retouch (n=3)",Tromnau 1975
29,Ketzendorf,DE,9.766776,53.442401,imprecise,uncertain,hamburgian,excavation,2,1,3,3,0,0,2,11,"Ca. 1000 artefacts, shouldered point (n=5), scraper on blade with some lateral retouch (n=10), Zinken (n=4), dobbelt-zinken (n=1), gravette-point",Tromnau 1975
30,Volksdorf_Mellenberg,DE,10.176592,53.638435,imprecise,uncertain,hamburgian,surface,1,1,1,2,0,0,1,6,"Shouldered point (n=1), zinken (n=3)",Burdukiewicz 1986; Tromnau 1975; Schindler 1960
31,Hoisbüttel_Buschwiese,DE,10.172451,53.694042,imprecise,uncertain,hamburgian,surface,1,1,1,1,0,0,1,5,"Several uncharacteristic retouched pieces (one claimed to be a zinken, however doubtful)",Brüchmann 1951/1952
32,Sasel,DE,10.118199,53.649015,imprecise,uncertain,hamburgian,surface,1,1,1,3,0,0,2,8,"Few surface finds: shouldered point (n=1?), zinken (n=?), scrapers on blade with lateral retouch.",Tromnau 1975; Schindler 1960; Brüchmann 1951/1952
33,Bergstedt,DE,10.115213,53.663172,imprecise,uncertain,hamburgian,excavation,2,1,2,4,0,0,2,11,"ca. 500-600 artefacts: shouldered point (n=4), zinken (n=4), scrapers on blade with lateral retouch and dobbelt-platform cores",Tromnau 1975; Schindler 1960; Brüchmann 1951/1952
34,Wellingsbuttel,DE,10.081830,53.637541,imprecise,uncertain,hamburgian,excavation,2,1,3,3,0,0,2,11,"Ca. 1000 artefacts, shouldered point (n=9), zinken (n=39), scraper on blade with some lateral retouch (n=87)",Tromnau 1975; Schindler 1960
35,Grande,DE,10.385035,53.582432,imprecise,uncertain,hamburgian,surface,1,1,2,3,0,0,2,9,"Shouldered point (n=4), Zinken (n=?), Dobbelt-zinken (=?), scraper on blade with lateral retouch (n=?)",Tromnau 1975; Rust 1943
36,Grunhof_tesperhude,DE,10.430572,53.413075,imprecise,uncertain,hamburgian,surface,1,1,0,1,0,0,1,4,"Shouldered point (n=1), mentioned by Tromnau",Tromnau 1975
37,Kroppelshagen_fahrendorf,DE,10.315851,53.490738,imprecise,uncertain,hamburgian,surface,1,1,1,2,0,0,2,7,"Shouldered point (n=1), scraper on blade with lateral retouch (n=2), private collection",Tromnau 1975 after Kersten 1959/1961
38,Kudderworde,DE,10.402335,53.585615,imprecise,uncertain,hamburgian,surface,1,1,1,2,0,0,2,7,"Shouldered point (n=1), Zinken (n=2), Dobbelt-zinken (n=1), and gravettepoints, private collection",Tromnau 1975 after Kersten 1959/1961
39,Naherfurth,DE,10.123168,53.767575,imprecise,uncertain,hamburgian,surface,1,1,0,1,0,0,1,4,Dobbelt-zinken (n=1),Tromnau 1974
40,Itzstedt,DE,9.508582,54.585180,imprecise,uncertain,hamburgian,surface,1,1,1,3,0,0,2,8,"Suface finds: zinken, dobbelt-zinken, shouldered points, scrapers on blades with lateral retouch",Tromnau 1974
41,Klein_niendorf,DE,10.284977,53.950805,imprecise,uncertain,hamburgian,surface,1,1,1,2,0,0,1,6,"Zinken (n=1), shouldered point (n=1), private collection, mentioned by Tromnau",Tromnau 1975
42,Hitzhusen,DE,9.843544,53.918953,imprecise,uncertain,hamburgian,surface,1,1,1,1,0,0,1,5,"Combined scraper-zinken (n=1), private collection, mentioned by Tromnau",Tromnau 1975
43,Bimohlen,DE,9.957523,53.934239,imprecise,uncertain,hamburgian,surface,1,1,3,2,0,0,1,8,"Ca. 1000 artefacts, shouldered point (n=3), scraper on blade with some lateral retouch (n=2), private collection, mentioned by Tromnau",Tromnau 1975
44,Bunsoh,DE,9.321720,54.166772,imprecise,uncertain,hamburgian,surface,1,1,1,2,0,0,1,6,"Zinken (n=3), Shouldered point (n=2)",Tromnau 1975 after Schwabedissen 1944
45,Rederstall_Baracke,DE,9.277127,54.208763,imprecise,uncertain,hamburgian,surface,1,1,1,1,0,0,1,5,"Few scrapers on blade with lateral retouch, few burins (private collection)",Tromnau 1975
46,Oldersbek,DE,9.167557,54.433798,imprecise,uncertain,hamburgian,surface,1,1,0,1,0,0,1,4,Shouldered point (n=1),Hinz 1954
47,Ahrenshoft_la86,DE,9.084849,54.558173,precise,pulse_2,havelte_group,surface,1,1,2,4,0,0,2,10,"Surface finds of bladeend scrapers, zinken, burins, cores and havelte points",Hartz 1987
48,Ahrenshoft_la73,DE,9.084849,54.558173,precise,pulse_2,havelte_group,excavation,3,2,3,4,0,0,2,14,Assemblages with both classic and havelte points,Clausen 1998
49,Ahrenshoft_la58A,DE,9.084849,54.558173,precise,pulse_2,havelte_group,surface,1,1,2,3,0,0,2,9,"Surface finds of havelte points, archbacked points, blade scraper, wehlen scrapers",Hartz 1987
50,Ahrenshoft_la58B,DE,9.084849,54.558173,precise,pulse_2,havelte_group,surface,1,1,2,4,0,0,2,10,"Surface finds of bladeend scrapers, zinken, burins",Hartz 1987
51,Ahrenshoft_la58C,DE,9.084849,54.558173,precise,pulse_2,havelte_group,surface,1,1,2,3,0,0,2,9,"Surface finds of bladeend scrapers, zinken, burins and points (some looks shouldered, some perhaps Havelte)",Hartz 1987
52,Ahrenshoft_la58D,DE,9.084849,54.558173,precise,pulse_2,havelte_group,excavation,3,2,3,4,0,3,2,17,,Hartz 1987; Clausen 1998; Weber 2010
53,Ahrenshoft_la58E-F,DE,9.084849,54.558173,precise,pulse_2,havelte_group,surface,1,1,3,4,0,0,2,11,"Surface finds of bladeend scrapers, zinken, burins and havelte points",Hartz 1987
54,Ahrenshoft_la11,DE,9.084849,54.558173,precise,pulse_2,havelte_group,surface,1,1,2,4,0,0,2,10,"Surface finds of bladeend scrapers, zinken, burins, cores and havelte points",Hartz 1987
55,Ahrenshoft_la79,DE,9.084849,54.558173,precise,pulse_1,classic_hamburgian,surface,1,1,1,1,0,0,2,6,One classic shouldered point,Hartz 1987
56,Meiendorf_2,DE,10.192473,53.635202,precise,pulse_1,classic_hamburgian,excavation,2,1,4,4,2,3,1,17,Classic Hamburgian site,Rust 1937 (Meiendorf 2)
57,Meiendorf_9,DE,10.192473,53.635202,precise,pulse_1,classic_hamburgian,excavation,2,1,4,4,2,0,1,14,,Tromnau 1975 (Meiendorf 9)
58,Poggenwisch,DE,10.192473,53.635202,precise,pulse_1,classic_hamburgian,excavation,2,1,4,4,2,3,1,17,Classic Hamburgian site,Rust 1958
59,Stellmoor,DE,10.192473,53.635202,precise,pulse_1,classic_hamburgian,excavation,2,1,2,3,2,2,1,13,Classic Hamburgian site,Rust 1943
60,Deimern_41_41a_41b,DE,9.906636,53.057920,precise,pulse_1,classic_hamburgian,excavation,2,2,3,4,0,2,1,14,Classic Hamburgian site,Burdukiewicz 1986 after Tromnau 1975a
61,Deimern_42,DE,9.906636,53.057920,precise,pulse_1,classic_hamburgian,excavation,2,2,4,4,0,2,1,15,,Tromnau 1975a
62,Deimern_44,DE,9.906636,53.057920,precise,pulse_1,classic_hamburgian,excavation,2,2,4,4,0,2,1,15,,Tromnau 1975a
63,Heber_118,DE,9.906842,53.066246,precise,pulse_1,classic_hamburgian,excavation,2,2,4,4,0,0,1,13,,Tromnau 1975a
64,Heber_127,DE,9.906947,53.066675,precise,pulse_1,classic_hamburgian,excavation,2,2,4,4,0,0,1,13,,Tromnau 1975a
65,Dorgener_moor,DE,7.382702,52.710668,imprecise,pulse_2,classic_hamburgian,excavation,2,2,3,4,0,0,1,12,"+100 artefacts with unknown distribution of tool-count: Havelte-variant points, zinken, scrapers, shouldered point?",Holm & Rieck 1992; Tromnau 1974; Schwabedissen 1937
66,Teltwisch_1,DE,10.192473,53.635202,precise,pulse_1,classic_hamburgian,excavation,2,2,3,4,2,0,3,16,Classic Hamburgian site,Burdukiewicz 1986 after Tromnau 1975b
67,Sahlenburg_Pennenmoor,DE,8.618619,53.858124,imprecise,pulse_1,classic_hamburgian,excavation,2,2,4,3,0,0,1,12,"Classic Hamburgian site, excavated by amateur","Büttner 1936, 1940; Schwabedissen 1937"
68,Hasewisch,DE,10.192473,53.635202,precise,pulse_1,classic_hamburgian,excavation,2,1,4,4,0,0,1,12,Classic Hamburgian site,Rust 1958
69,Borneck,DE,10.243921,53.660799,precise,pulse_1,classic_hamburgian,excavation,2,1,4,4,0,0,1,12,Classic Hamburgian site,Rust 1958
70,Querenstede,DE,7.959159,53.157081,imprecise,uncertain,hamburgian,excavation,2,2,3,3,0,0,1,11,"Flint concentration of 500 artefacts: zinken etc. supposedly n=1 shouldered point, but that one has dissappeared prior to publication and therefore not drawn",Zoller 1963; Tromnau 1975; Burdukiewicz 1986
71,Schalkholz,DE,9.247623,54.245896,imprecise,pulse_1,classic_hamburgian,excavation,2,1,3,4,0,2,1,13,"Classic Hamburgian site, radiocarbon dating done on charcoal",Burdukiewicz 1986 after Tromnau 1974
72,Peheim,DE,7.843351,52.882189,imprecise,uncertain,hamburgian,surface,1,1,0,1,0,0,1,4,Shouldered point (n=1),Burdukiewicz 1986; Tromnau 1975; Schwabedissen 1937
73,Glander_heide,DE,8.426995,52.891008,imprecise,uncertain,hamburgian,surface,1,1,2,3,0,0,1,8,"Zinken (n=5), shouldered point (n=6), tool total (n=57?)","Burdukiewicz 1986 after Schwabedissen 1937, Bohmers 1947"
74,Gromitz,DE,10.959841,54.150196,imprecise,uncertain,hamburgian,excavation,2,2,2,2,0,0,1,9,Brückner writes younger Hamburgian based on 1 doubtful tanged point and a Zinken ‘like’ artefact,Burdukiewicz 1986 after Brückner 1970
75,Drage,DE,9.532598,54.008734,imprecise,uncertain,hamburgian,surface,1,1,0,1,0,0,1,4,Havelte-variant point (n=1),Schwabedissen 1937
76,Volksdorf,DE,10.164872,53.647771,imprecise,uncertain,hamburgian,surface,1,1,0,1,0,0,1,4,Shouldered point (n=1),Schwabedissen 1937
77,Rendsburg,DE,9.659403,54.307958,imprecise,uncertain,hamburgian,surface,1,1,1,1,0,0,1,5,"Shouldered point (n=1), retouched pieces (n=6)",Schwabedissen 1937
78,Klein_vollbuttel,DE,10.488861,52.416721,imprecise,uncertain,hamburgian,surface,1,1,2,2,0,0,1,7,"Shouldered point (n=55), zinken (n=15)",Tromnau 1975; Zeitz 1969; Schwabedissen 1937
79,Stade_campe,DE,9.471237,53.592479,imprecise,uncertain,hamburgian,surface,1,1,2,3,0,0,1,8,"Shouldered point (n=2), Zinken (n=2), dobbelt-zinken (n=1), scraper on blade with lateral retouch (n=?), gravette points",Tromnau 1975; Schwabedissen 1937
80,Sahlenburg_Prangerbusch,DE,8.614109,53.861581,imprecise,uncertain,hamburgian,surface,1,1,1,1,0,0,1,5,Zinken (n=3),Tromnau 1975; Schwabedissen 1937
81,Marmstorf,DE,9.952875,53.433384,imprecise,uncertain,hamburgian,surface,1,1,1,3,0,0,1,7,"Shouldered point (n=1), zinken (n=1), scraper on blade with lateral retouch (n=3)",Burdukiewicz 1986; Tromnau 1975; Schwabedissen 1937
82,Glüsingen,DE,10.016194,53.408293,imprecise,uncertain,hamburgian,surface,1,1,1,3,0,0,1,7,Described merely as 'kerbspitze',Schwabedissen 1937
83,Nübel,DE,9.584485,54.563504,imprecise,uncertain,hamburgian,surface,1,1,1,1,0,0,1,5,"Scrapers, burins, and one definite Havelte point",Clausen 1998
84,Lüssow,DE,12.146901,53.831152,precise,uncertain,hamburgian,surface,1,1,1,1,0,0,1,5,Dobbelzinken found among lithic material stemming from various periods,"Terberger & Lübke 2005, 2007"
85,Gramnitz,DE,11.123149,53.405478,imprecise,uncertain,hamburgian,surface,1,1,0,1,0,0,1,4,Single find of shouldered point,"Terberger & Lübke 2005, 2007"
86,Glasewitz,DE,12.280241,53.819888,imprecise,uncertain,hamburgian,surface,1,1,0,1,0,0,1,4,Single find of shouldered point,"Terberger & Lübke 2005, 2007"
87,Sahlenburg_Hasenworth,DE,8.614109,53.861581,imprecise,uncertain,hamburgian,excavation,2,1,3,3,0,0,1,10,"Shouldered point (n=4), Zinken (n=3), Dobbelt-zinken (=3), scraper on blade with lateral retouch (n=1), private collection and museum collection",Tromnau 1975
88,Hohenholz,DE,9.364865,52.456898,imprecise,uncertain,creswellian,surface,1,1,3,2,0,0,1,8,"artefact total (n=185), many creswell/shouldered points, dual-platform core",Bohnsack 1956
89,Dyrotz,DE,12.957517,52.542353,imprecise,uncertain,hamburgian,surface,1,1,0,1,0,0,1,4,Zinken (n=1),Bobrowski & Sobkowiak-Tabaka 2006; Mey 1960; Gramsch 1987 (late glacial in central europe)
90,Buchow_Carpzow,DE,12.941331,52.517908,imprecise,uncertain,hamburgian,surface,1,1,0,1,0,0,1,4,Shouldered point ‘like’ artefact (n=1),Bobrowski & Sobkowiak-Tabaka 2006; Mey 1960; Gramsch 1987 (late glacial in central europe)
91,Bjerlev_hede,DK,9.445769,55.809389,precise,uncertain,hamburgian,surface,1,1,0,1,0,0,1,4,1 shouldered projectile point,"Becker 1969, 1971"
92,Nordre_fasanvej_215,DK,12.534622,55.696235,precise,uncertain,hamburgian,surface,2,1,0,0,1,2,0,6,Proximale del af rensdyrgevir med skære- og slagmærker. En samtdig pollendatering til Bølling bekræftes af en C14-datering til 12050 +/- 90 BP (ukalib),Danish find database (unpublished)
93,Ring_mark,DK,10.350899,56.397182,precise,uncertain,hamburgian,surface,1,1,0,1,0,0,0,3,"1 Zinken, follow up survey yielded only uncharacteristic flakes",Danish find database (unpublished)
94,Braenoere,DK,9.421748,55.397154,precise,uncertain,hamburgian,surface,1,1,1,2,0,0,1,6,"1 Shouldered point, named ‘Taps’ in Danish find database",Holm & Rieck 1992
95,Tranegilde_tofter,DK,12.350801,55.623749,precise,uncertain,hamburgian,surface,1,1,1,2,0,0,0,5,Possible lithic artefacts of Lateglacial origin (possible Zinken and Whelen scraper),Danish find database (unpublished)
96,Blaa_aa,DK,9.252174,55.381336,precise,uncertain,hamburgian,excavation,3,2,0,1,0,0,1,7,1 bipolar knapping core,Danish find database (unpublished)
97,Boegebjerg,DK,9.404858,55.572607,precise,uncertain,hamburgian,surface,1,1,0,1,0,0,0,3,1 projectile point,Danish find database (unpublished)
98,Hoby,DK,11.234696,54.739396,precise,uncertain,hamburgian,excavation,3,1,0,0,0,0,0,4,1 undefined lithic,Danish find database (unpublished)
99,Hykkelbjerg,DK,9.517238,55.381251,precise,uncertain,hamburgian,surface,1,1,0,0,0,0,0,2,1 undefined lithic,Danish find database (unpublished)
100,Jels_1,DK,9.240096,55.375035,precise,pulse_2,havelte_group,excavation,3,2,5,4,0,1,2,17,,"Holm & Rieck 1983, 1992"
101,Jels_2,DK,9.240096,55.375035,precise,pulse_2,havelte_group,excavation,3,2,5,4,0,1,2,17,,Holm & Rieck 1992
102,Jels_3,DK,9.219177,55.358957,precise,pulse_2,havelte_group,excavation,3,2,4,4,0,0,0,13,,Unpublished
103,Krogsboelle,DK,11.158477,54.843938,precise,pulse_2,havelte_group,excavation,3,2,3,4,0,1,2,15,,Riede et al. 2019
104,Soelbjerg_2_3,DK,11.097736,54.762641,precise,pulse_2,havelte_group,excavation,3,2,4,4,0,0,1,14,,"Petersen & Johansen 1991, 1994, 1996"
105,Nylandsgaard,DK,11.420663,54.961262,precise,uncertain,hamburgian,surface,1,1,0,1,0,0,0,3,1 projectile point of Havelte variant,Danish find database (unpublished)
106,Slotseng_c,DK,9.269621,55.329464,precise,pulse_2,havelte_group,excavation,3,2,4,4,3,3,2,21,,"Holm & Rieck 1992; Holm 1991, 1996"
107,Frejlev,DK,9.790003,57.009354,precise,uncertain,hamburgian,surface,1,1,0,1,0,0,0,3,Single find of Zinken like artefact,Personal communication with finder
108,Dead_mans_cave,GB-ENG,-1.238142,53.354539,imprecise,uncertain,hamburgian,excavation,2,3,2,1,1,3,1,13,"Creswellian assemblage with shouldered points, bones from reindeer, radiocarbon-dated",Pettit & White 2012; Mellars 1969
109,King_Arthurs_cave,GB-ENG,-2.659605,51.837903,precise,uncertain,hamburgian,excavation,2,1,3,1,0,0,1,8,Small assemblage with shouldered points,Burdukiewicz 1986 after Cambell 1977
110,Soldiers_hole,GB-ENG,-2.767697,51.297681,imprecise,uncertain,hamburgian,excavation,2,1,2,2,0,0,1,8,11 artefacts: shouldered points and blade-end scrapers,Burdukiewicz 1986 after Cambell 1977
111,La_Sagasse_convent_romsey,GB-ENG,-1.502569,50.988011,precise,uncertain,hamburgian,excavation,3,2,4,1,0,0,3,13,Site of Hengstbury type,Conneller et al. 2007
112,Hengistbury_Head,GB-ENG,-1.755811,50.715641,precise,uncertain,hamburgian,excavation,3,2,5,3,0,1,3,17,"TL and OSL dating too imprecise, open air site, doubtful of the shouldered point and it being Hamburgian",Barton 1992
113,Goughs_Cave,GB-ENG,-2.765531,51.281846,precise,uncertain,hamburgian,excavation,2,3,4,2,1,3,2,17,"Cave site, shouldered points, blade-end scrapers with lateral retouch",Burdukiewicz 1986; Jacobi 2004; Pettitt & White 2012
114,Mother_Grundys_Parlour,GB-ENG,-1.198198,53.262631,precise,uncertain,hamburgian,excavation,2,3,3,1,0,0,3,12,"Cave site at Creswell Crags, shouldered points",Burdukiewicz 1986; Armstrong 1925; Campbell 1969
115,Robin_Hood_Cave,GB-ENG,-1.193831,53.263424,imprecise,uncertain,hamburgian,excavation,2,3,3,1,0,0,3,12,Cave at Creswell Crags,Burdukiewicz 1986 after Cambell 1977; Campbell 1969
116,Lynx_Cave,GB-ENG,-1.854222,53.091761,imprecise,uncertain,hamburgian,excavation,2,1,1,1,0,0,1,6,"Cave site, shouldered point",Pettit & White 2012
117,Farndon_Fields,GB-ENG,-0.834236,53.062202,precise,uncertain,hamburgian,excavation,3,2,,,,,,5,Open air site,Garton & Jacobi 2009; Pettitt & White 2012
118,Kents_Cavern,GB-ENG,-3.507329,50.467358,precise,uncertain,hamburgian,excavation,2,3,3,1,1,3,2,15,"Cave site, black band layer, Creswellian",Burdukiewicz 1986 after Cambell 1977
119,Cranwich,GB-ENG,0.624543,52.518822,imprecise,uncertain,hamburgian,surface,1,1,0,1,0,0,2,5,Single find of shouldered point,Jacobi & Martingell 1980
120,Long_Island,GB-ENG,-1.028591,50.829386,imprecise,uncertain,hamburgian,surface,1,1,1,1,0,0,2,6,Single find of shouldered point and two retouched blades,Draper 1962
121,Avelines_Hole,GB-ENG,-2.753277,51.324701,precise,uncertain,hamburgian,excavation,2,2,3,1,1,3,3,15,"Mixed, backed points, shouldered points, radiocarbon on bone from red deer, mesolithic material, partly destroyed during ww2",Jacobi 2005
122,Brockhill,GB-ENG,-0.593195,51.318724,imprecise,uncertain,hamburgian,unknown,1,1,4,1,0,0,1,8,">1500 artefacts (194 retouched tools), cannot find the primary litterature",Barton 1992 (182-183)
123,Fox_Hole,GB-ENG,-1.510111,53.113729,precise,uncertain,hamburgian,excavation,2,3,1,1,1,0,2,10,"Shouldered point ‘like’ artefact (n=1), bone (horse, red deer, brown bear, wolf, badger)",Pettit & White 2012 (after Bramwell 1971)
124,Howburn Farm,GB-SCT,-3.470231,55.671624,precise,uncertain,hamburgian,excavation,3,2,4,4,0,0,2,15,,Ballin et al. 2018
125,Hoyles_mouth_cave,GB-WLS,-4.705646,51.672592,imprecise,uncertain,hamburgian,excavation,2,1,3,1,0,0,1,8,"Small assemblage with shouldered points, creswellian?",Burdukiewicz 1986 after Cambell 1977
126,Glynas_Lake_6,LT,24.287786,54.157341,imprecise,uncertain,hamburgian,unknown,1,1,1,1,0,0,1,5,Shouldered point (n=3),Bobrowski & Sobkowiak-Tabaka 2006
127,Rudnia,LT,24.667075,54.070167,imprecise,uncertain,hamburgian,surface,1,1,0,1,0,0,1,4,Shouldered point (n=1),Bobrowski & Sobkowiak-Tabaka 2006; Ivanovaité & Riede 2018
128,Margiai_Sala,LT,24.706746,54.040085,imprecise,uncertain,hamburgian,surface,1,1,1,3,0,0,1,7,"Total artefact count (n=10), tanged point (Author says havelte-type?) (n=2), zinken (n=2), blade-end scrapers (n=3), burin",Bobrowski & Sobkowiak-Tabaka 2006; Ivanovaité & Riede 2018
129,Kasetos,LT,24.349509,54.108804,imprecise,uncertain,hamburgian,surface,1,1,2,3,0,0,2,9,"Total artefact count (n=13), shouldered point (n=2), tanged point (Author says havelte-type?) (n=1), zinken (n=5), blade-end scrapers (n=3), burins",Bobrowski & Sobkowiak-Tabaka 2006; Ivanovaité & Riede 2018
130,Varene_2,LT,24.553174,54.251893,imprecise,uncertain,hamburgian,excavation,2,1,1,1,0,0,1,6,"Fragments of tanged or shouldered points?, retouched flakes",Bobrowski & Sobkowiak-Tabaka 2006; Ivanovaité & Riede 2018
131,Maksimonys,LT,24.131840,54.185115,imprecise,uncertain,hamburgian,surface,1,1,1,1,0,0,2,6,Shouldered point (n=3),Bobrowski & Sobkowiak-Tabaka 2006; Ivanovaité & Riede 2018
132,Ezerynas,LT,23.981907,54.200714,imprecise,uncertain,hamburgian,excavation,2,1,1,1,0,0,1,6,Single artefacts among n=23000 artefacts,Bobrowski & Sobkowiak-Tabaka 2006; Ivanovaité & Riede 2018
133,Drunen_IB,NL,5.135601,51.685543,imprecise,uncertain,creswellian,surface,1,1,1,1,0,0,1,5,Kramer et al. (1985:68) mentions that Wouters (1982) mentions creswellian artefacts from surface sites,Kramer et al. 1985; Wouters 1982
134,Kessel_I,NL,6.042461,51.298826,imprecise,uncertain,creswellian,surface,1,1,1,1,0,0,1,5,Kramer et al. (1985:68) mentions that Wouters (1982) mentions creswellian artefacts from surface sites,Kramer et al. 1985; Wouters 1982
135,Op_de_Hees,NL,6.084011,51.408714,imprecise,uncertain,creswellian,unknown,1,1,1,1,0,0,1,5,"Atypical Cheddar point (n=1), Creswell point (n=2)",Barton et al. 2003 after Stapers 1979.
136,Emmerhout,NL,6.937921,52.787541,precise,uncertain,creswellian,excavation,3,2,3,2,0,0,3,13,"artefact total (n=350), many creswell/shouldered points, blade-end scrapers with lateral retouch",Stapert 1985
137,Sigerswoude_II,NL,6.198193,53.083479,precise,uncertain,creswellian,excavation,3,2,4,3,0,0,3,15,"Total artefact count (n=1111), creswell/shouldered points, blade-end scrapers with lateral retouch, dual-platform single-faced core",Kramer et al. 1985
138,Den_Hoorn,NL,4.751118,53.029354,imprecise,uncertain,hamburgian,surface,1,1,1,2,0,0,2,7,"scraper (n=1), borer (n=1)",van Noort 2007
139,Sassenheim,NL,6.574276,53.226941,imprecise,uncertain,hamburgian,unknown,,,,,,,,0,Only mentioned in the litterature as a Hamburgian site in the province of Groeningen,Stapert 1982: 63; Johansen & Stapert 2004: 5
140,Nordzee_Paal_9,NL,4.687913,53.118749,imprecise,uncertain,hamburgian,surface,1,1,0,1,0,1,2,6,Shouldered point (n=1),van Noort 2007
141,Hooge_Berg_A,NL,4.812761,53.045677,precise,uncertain,hamburgian,surface,1,1,1,4,0,0,2,9,"Shouldered point (n=?), Zinken ‘like’ (n=?), sraper on blade (n=?), dual-platform single-faced core (n=1), also gravette point",van Noort 2007
142,Hooge_Berg_B,NL,4.807827,53.048871,precise,uncertain,hamburgian,surface,1,1,1,3,0,0,2,8,"Shouldered point (fragment) (n=13 Zinken ‘like’ (n=?), sraper on blade (n=?) also gravette point",van Noort 2007
143,Ureterp_2,NL,6.157883,53.091518,imprecise,uncertain,hamburgian,surface,1,1,0,1,0,0,1,4,Shouldered point (n=1),"Burdukiewicz 1986: 245; Tromnau 1975 pp. 88; Bohmers 1947 pp. 169, fig. 24, 10"
144,Gijzelte,NL,5.213755,51.626098,imprecise,uncertain,hamburgian,surface,1,1,0,1,0,0,1,4,Havelte-variant point (n=1),"Burdukiewicz 1986: 246; Tromnau 1975 pp. 88; Bohmers 1961 fig. 3, 23"
145,Havelte_Westerzand,NL,6.227523,52.726543,imprecise,uncertain,hamburgian,surface,1,1,1,3,0,0,1,7,"Shouldered point (n=3), Zinken (n=?), blade- scraper with lateral retouch (n=1)",Burdukiewicz 1986: 246; Tromnau 1975 pp. 87; Narr 1968; Bohmers 1947 pp. 168 &171
146,Een_schipsloot,NL,6.393059,53.075631,precise,uncertain,hamburgian,excavation,3,3,1,1,0,0,2,10,"Possible Shouldered points, well excavated but disturbed and a complete palimpsest (backed points, creswell, azillian etc.)",Houtsma et al. 1981
147,Duurswoude_I,NL,6.220286,53.062417,imprecise,uncertain,hamburgian,surface,1,1,0,1,0,0,1,4,"Fractured havelte-variant point, Tromnau says it is in Bohmers 1961 fig. 3:21, but it is the same point in Burdukiewicz 1986 plate XI:17 (Duurswoude II) is it a mixup? Is this site just part of Duurswoude II?",Tromnau 1975 pp. 88; van Noort 2007 after Bohmers & Houtsma 1961 pp. 26
148,Duurswoude_II,NL,6.220286,53.062417,imprecise,pulse_2,havelte_group,excavation,2,2,3,3,0,2,1,13,"Hamburgian site with possibly Havelte points, radiocarbon dating on charcoal, number of finds not published",Burdukiewicz 1986; van Noort 2007 after Bohmers & Houtsma 1961 pp. 140
149,Duurswoude_IV,NL,6.220286,53.062417,imprecise,pulse_1,classic_hamburgian,excavation,2,2,2,3,0,0,1,10,"Hamburgian site with shouldered points, number of finds not published",Burdukiewicz 1986; van Noort 2007 after Bohmers & Houtsma 1961 pp. 142
150,Havelte_holtingerzand,NL,6.235213,52.771151,imprecise,pulse_2,havelte_group,excavation,2,1,3,3,0,0,1,10,"Havelte Site (locus classicus), only information on number of tools, not entire assemblage or statigraphy",Burdukiewicz 1986; Tromnau 1975 pp. 87; Narr 1968; Schwabedissen 1950 pp. 53; Bohmers 1947 pp. 175-177
151,Ureterp_1,NL,6.157883,53.091518,imprecise,pulse_1,classic_hamburgian,excavation,2,1,4,4,0,0,2,13,"Classic Hamburgian site, Total artefacts (n=5408)",Burdukiewicz 1986; Tromnau 1975 pp. 88; Bohmers 1947 fig. 13-22
152,Oldeholtwolde,NL,6.008081,52.915081,precise,uncertain,hamburgian,excavation,3,2,4,4,0,2,2,17,Possible Havelte site,Stapert 1986; Johansen & Stapert 2004
153,Neer_II,NL,5.941773,51.254287,imprecise,uncertain,creswellian,surface,1,1,2,4,0,0,1,9,"Shouldered points not often found in Hamburgian inventories (Bohmers 1956: 23). The number of tools given by Burdukiewicz (1986: 244) can’t be found in Bohmers (1956). Doubt it’s Hamburgian, rather Creswellian as Bohmers says there are many Creswell points (Bohmers 1956:23).",Burdukiewicz 1986 pp. 244; after Bohmers 1956
154,Luttenberg,NL,6.366104,52.405633,imprecise,uncertain,hamburgian,excavation,3,2,4,4,0,2,1,16,"Looks like the Oldeholtwolde material, shouldered points and tanged points that are similar to Oldeholtwolde, also creswell points",Stapert 1986
155,Donderen,NL,6.544161,53.091542,imprecise,uncertain,hamburgian,excavation,1,1,,,0,2,0,4,"Hamburgian site, possibly classic, radiocarbon dating on charcoal of uncertain association, very little info",Grimm & Weber 2008 after Lanting & Plicht 1996
156,Elsoo_tronde,NL,6.227901,52.950517,imprecise,uncertain,hamburgian,excavation,1,1,,,0,2,0,4,"Possible Classic site, radiocarbon dating done on charcoal (but possibly a mesolithic hearth), very little info",Grimm & Weber 2008 after Lanting & Plicht 1996
157,Vledder,NL,6.188230,52.863739,precise,pulse_2,havelte_group,excavation,3,2,3,3,0,2,2,15,"Possible Havelte site, Mesolithic mixture, radiocarbon dating done on charcoal of uncertain association",Beuker & Niekus 1996; Grimm & Weber 2008
158,Stroe,NL,5.754012,52.185342,precise,pulse_2,havelte_group,excavation,3,2,3,3,0,0,2,13,Havelte Site,Rensink & de Kort 2012
159,Harderwijk,NL,5.630425,52.344508,imprecise,uncertain,hamburgian,surface,1,1,1,1,0,0,1,5,"Shouldered point (n=1), backed points (n=numerous)",Burdukiewicz 1986 pp. 245; Tromnau 1975 pp. 88; Narr 1968; Bohmers 1947 pp. 171
160,Elspeet,NL,5.786306,52.292208,imprecise,uncertain,hamburgian,surface,1,1,3,2,0,0,1,8,"Total artefact count (n=756), shouldered point (n=?), dobbel-zinken (n=1)","Burdukiewicz 1986 pp. 244; Tromnau 1975 pp. 88; Narr 1968; Bohmers 1961 (palhist); Bohmers 1947 pp. 176, fig. 26:11-12, 15; Popping 1931"
161,Soesterduinen,NL,5.298709,52.147374,imprecise,uncertain,hamburgian,surface,1,1,1,1,0,0,1,5,"Shouldered point (n=1), gravette-type (n=?)",Burdukiewicz 1986 pp. 245; Tromnau 1975 pp. 88; Narr 1968; Bohmers 1947 pp. 171
162,Appelscha,NL,6.355751,52.947076,imprecise,uncertain,hamburgian,surface,1,1,1,2,0,0,1,6,"Shouldered point (n=1), Zinken (n=1)","Burdukiewicz 1986 pp. 245; Tromnau 1975 pp. 88; Narr 1968; Bohmers 1947 pp. 169, fig. 23:2, 24:1"
163,Bakkeveen,NL,6.257038,53.080277,imprecise,uncertain,hamburgian,surface,1,1,1,2,0,0,1,6,"Burins (n=2), end-scraper (n=1), shouldered point (n=5 (3 fragments))","Burdukiewicz 1986; Tromnau 1975 pp. 88; Bohmers 1947 pp. 167, fig. 23: 3-6 & 10-11, fig. 25: 11."
164,Houtigehage_1,NL,6.144428,53.153074,imprecise,uncertain,hamburgian,surface,1,1,2,3,0,0,1,8,"Shouldered points (n=4), Zinken (n=10), scrapers etc.","Burdukiewicz 1986; Tromnau 1975 pp. 88; Bohmers 1947 pp. 167, fig. 23: 7-9 & 12-15, fig. 24: 2-3 & 5."
165,Makkinga,NL,6.217037,52.980629,imprecise,uncertain,hamburgian,excavation,2,1,3,3,0,0,1,10,"Zinken, shouldered points, gravette points, total tool (n=173)",Burdukiewicz 1986 pp. 245; Tromnau 1975 pp. 88; Narr 1968; Popping 1934
166,Oostermeer,NL,6.057873,53.176909,imprecise,uncertain,hamburgian,surface,1,1,1,1,0,0,1,5,Fragments of possible zinken (n=2),"Burdukiewicz 1986: 245; Bohmers 1947: 169, fig. 24:1,4"
167,Suameer,NL,6.002077,53.177436,imprecise,uncertain,hamburgian,surface,1,1,0,1,0,0,1,4,Fragment of shouldered point (n=1),"Burdukiewicz 1986: 245; Narr 1968; Bohmers 1947: 169, fig. 24:6"
168,Weper,NL,6.303932,53.008193,imprecise,uncertain,hamburgian,surface,1,1,0,1,0,0,1,4,Shouldered point (n=1),"Burdukiewicz 1986 pp. 245; Tromnau 1975 pp. 88; Narr 1968; Schwabedissen 1950 pp. 52-54, fig. 2:1; Bohmers 1947 pp. 176, fig. 26:16"
169,Wijnjeterp,NL,6.206326,53.056032,imprecise,uncertain,hamburgian,surface,1,1,0,1,0,0,1,4,Havelte-variant point (n=1),Burdukiewicz 1986 pp. 245; Tromnau 1975 pp. 88; Bohmers 1956 fig. 2:7.
170,Aalden,NL,6.717584,52.791841,imprecise,uncertain,hamburgian,surface,1,1,1,2,0,0,1,6,"Shouldered point (fragment) (n=1), Zinken (n=1)",Burdukiewicz 1986: 245; Tromnau 1975 pp. 87; Narr 1968; Bohmers 1947 pp. 170-171
171,Eelde,NL,6.565728,53.133194,imprecise,uncertain,hamburgian,surface,1,1,1,2,0,0,1,6,"Shouldered point (n=1), Zinken (n=2)",Burdukiewicz 1986: 245; Tromnau 1975 pp. 87; Narr 1968; Bohmers 1947 pp. 168-169
172,Gasselte,NL,6.787769,52.971013,imprecise,pulse_1,classic_hamburgian,excavation,2,1,3,3,0,0,1,10,"Blade-end scrapers with lateral retouch (n=?), Zinken (n=14), shouldered point (n=17), tool total (n=636)",Burdukiewicz 1986; Tromnau 1975 pp. 87; Narr 1968; Bohmers 1947 pp. 169
173,Gees,NL,6.691205,52.749595,imprecise,uncertain,hamburgian,surface,1,1,1,2,0,0,1,6,"Zinken (n=2), shouldered point (1), backed piece (n=2)",Burdukiewicz 1986: 246; Tromnau 1975 pp. 87; Narr 1968; Bohmers 1947 pp. 165 & 171
174,Rolde,NL,6.646361,52.987317,imprecise,uncertain,hamburgian,surface,1,1,2,3,0,0,1,8,"Zinken (n=4), shouldered point (n=6), Blade-end scrapers with lateral retouch (n=13), tool total (n=37)",Burdukiewicz 1986: 246; Tromnau 1975 pp. 88; Narr 1968; Bohmers 1947 pp. 168-170
175,Zwarte_water,NL,6.445156,52.776974,imprecise,uncertain,hamburgian,surface,1,1,1,1,0,0,1,5,"Numerous artefacts, said to be ‘like the material from Havelte Holtingerzand’ but no mentions of artefact types or counts",Burdukiewicz 1986: 246; Tromnau 1975 pp. 88; Bohmers 1947 pp. 176
176,Zeijen,NL,6.546823,53.047191,imprecise,uncertain,creswellian,excavation,1,1,3,2,0,0,1,8,"Backed piece (n=13), end-scraper (n=numerous), Zinken (n=numerous), tool total (n=189), Creswellian",Burdukiewicz 1986: 246 after Bohmers 1956
177,Marum,NL,6.267059,53.146168,imprecise,uncertain,hamburgian,surface,1,1,3,3,0,0,1,9,"Zinken (n=numerous), shouldered point (n=7), backed piece (n=2), tool total (n=171)","Burdukiewicz 1986 pp. 245; Tromnau 1975 pp. 88; Bohmers 1961 (palhist 8), Narr 1968"
178,Texel_Den_Burg,NL,4.799048,53.054441,imprecise,uncertain,hamburgian,excavation,3,2,3,1,0,0,2,11,Looks like the Oldeholtwolde material,Stapert 1981; van Noort 2007
179,Elisentaler_see,PL,15.856096,52.074831,imprecise,uncertain,hamburgian,surface,1,1,1,2,0,0,2,7,"Surface finds (n=3): shouldered points (n=2), dobbelt-zinken (n=1)",Tromnau 1975; Mey 1960; Rust 1943
180,Zolwin_29,PL,15.646234,52.462212,imprecise,uncertain,hamburgian,excavation,3,1,0,1,0,0,1,6,Shouldered point (n=1),Bobrowski & Sobkowiak-Tabaka 2006
181,Legon_5,PL,16.389861,51.769283,precise,uncertain,hamburgian,excavation,3,2,3,2,0,0,2,12,"Supposedly Hamburgian – not convinced – zinken looks like ordinary borer and points are only fragments, also backed points",Burdukiewicz & Szynkiewicz 2002
182,Osno_Lubuskie,PL,14.868404,52.449609,imprecise,uncertain,hamburgian,unknown,1,1,1,1,0,0,1,5,"Shouldered point (n=1), core (n=1), combination tool (n=1)",Kabacinski & Sobkowiak-Tabaka 2012: 85
183,Cichmiana_2,PL,18.782903,52.079288,imprecise,uncertain,hamburgian,unknown,1,1,1,0,0,0,1,4,"Kabacinski & Sobkowiak-Tabaka (2012) writes that shouldered points were recovered at the Swiderian site Cichmiana 2, but the drawing are all of tanged points (probably swiderian). “it is not unlikely that some of them are only Hamburgian-like in terms of typology, not being in any way related to this culture” (Bobrowski & Sobkowiak-Tabaka 2006: 13).","Bobrowski & Sobkowiak-Tabaka 2006; Kabacinski & Sobkowiak-Tabaka 2012: 85, fig. 14:3-8"
184,Rzuchow_43,PL,18.350509,50.067693,imprecise,uncertain,hamburgian,surface,3,1,1,1,0,0,1,7,"fragment of shouldered point (n=1) (but it’s impossible to tell if it’s a shouldered point or not), fragment of backed point (n=1)","Bobrowski & Sobkowiak-Tabaka 2006; Kabacinski & Sobkowiak-Tabaka 2012: 85, fig. 14:1-2"
185,Myszecin,PL,15.646942,52.286908,imprecise,uncertain,hamburgian,excavation,3,2,4,3,0,0,1,13,"Total artefact count (n=8600) (spread over 13 concentrations), shouldered point (n=?), zinken (n=?), blade-end scrapers",Kabacinski & Sobkowiak-Tabaka 2012
186,Kragola_25,PL,18.242705,52.154271,imprecise,pulse_1,classic_hamburgian,excavation,3,2,4,4,0,0,1,14,"Total artefact count (n=1484), shouldered point (n=11), zinken and dobbelt-zinken (n=?), blade-end scrapers, dual-platform single-faced cores",Bobrowski & Sobkowiak-Tabaka 2006; Kabacinski & Sobkowiak-Tabaka 2012; Kabacinski & Kobusiewicz 2007
187,Tanowo_2,PL,14.462441,53.539261,imprecise,uncertain,hamburgian,excavation,,,,,,,,0,"Type of zinken perforators, blade-end scrapers – seems doubtful – named ‘controversial’ by Bobrowski & Sobkowiak-Tabaka 2006: 12",Bobrowski & Sobkowiak-Tabaka 2006; Galinski 1987 (late glacial in central europe) _ also look at the burdukiewicz text
188,Mirkowice_33,PL,17.411941,52.768771,precise,pulse_1,classic_hamburgian,excavation,2,2,4,4,1,3,2,18,"Ca. 2600 flint artefacts (zinken, shouldered points, end scrapers, cores etc.)",Bobrowski & Sobkowiak-Tabaka 2006; Chlodnicki & Kabacinski 1997; Kabacinski et al. 1999
189,Olbrachice_14,PL,16.360023,51.786319,imprecise,uncertain,hamburgian,excavation,3,1,0,1,0,0,1,6,Shouldered point (n=1),Bobrowski & Sobkowiak-Tabaka 2006
190,Olbrachice_8,PL,16.372641,51.769791,precise,pulse_1,classic_hamburgian,excavation,3,2,4,4,1,4,1,19,"ca. 5645 artefacts, 400 animal remains","Burdukiewicz 1986: 224, 1987; Burdukiewicz & Szynkiewicz 2002; Bobrowski & Sobkowiak-Tabaka 2006"
191,Wojnowo_2,PL,15.785124,52.099445,imprecise,pulse_1,classic_hamburgian,excavation,2,1,2,1,0,2,1,9,"Shouldered point, little debitage, radiocarbon dating done on charcoal, but Wojnowo 2 is a Swiderian site",Bobrowski & Sobkowiak-Tabaka 2006
192,Sidlnica_17,PL,16.333385,51.764142,precise,pulse_1,classic_hamburgian,excavation,3,2,4,4,0,0,3,16,"More than 3000 flint artefacts, stone and amber artefacts",Burdukiewicz & Szynkiewicz 2002
193,Siedlnica_17a,PL,16.333385,51.764142,precise,pulse_1,classic_hamburgian,excavation,2,1,4,4,1,2,1,15,"More than 6000 Hamburgian flint artefacts, radiocarbon dating done one bone",Bobrowski & Sobkowiak-Tabaka 2006; Burdukiewicz 1986: 224
194,Trzebicz_Mlyn_2,PL,15.739456,52.790588,imprecise,uncertain,hamburgian,surface,1,1,1,1,0,0,1,5,Shouldered point (n=3),Bobrowski & Sobkowiak-Tabaka 2006
195,Wojsak,PL,21.750071,54.050208,imprecise,uncertain,hamburgian,surface,1,1,1,1,1,0,1,6,2 fragments of reindeer antler with traces of incision,Bobrowski & Sobkowiak-Tabaka 2006
196,Popowka_Mala,PL,17.805881,53.950729,imprecise,uncertain,hamburgian,surface,1,1,0,1,1,0,1,5,Fragment of reindeer antler with traces of incision,Bobrowski & Sobkowiak-Tabaka 2006
197,Rusajny,PL,20.925488,54.263381,imprecise,uncertain,hamburgian,surface,1,1,0,1,1,0,1,5,Fragment of reindeer antler with traces of incision,Bobrowski & Sobkowiak-Tabaka 2006
198,Nowy_mlyn_2_3,PL,16.945442,52.758016,imprecise,pulse_1,classic_hamburgian,excavation,2,1,1,2,0,3,1,10,"shouldered points, zinken, few diagnostic elements, radiocarbon dating on charcoal, little info",Bobrowski & Sobkowiak-Tabaka 2006; Burdukiewicz 1986: 224
199,Liny_1,PL,15.840041,52.109491,imprecise,pulse_1,classic_hamburgian,excavation,3,2,4,4,0,0,2,15,"Ca. 1100 flint artefacts from surface collection (lost), ca. 935 flint artefacts from excavations (Zinken, shouldered points, cores, endscrapers etc.)","Bobrowski & Sobkowiak-Tabaka 2006; Burdukiewicz 1986: 224; Kobusiewicz 1973, 1975"
200,Rogow_opolski_9,PL,17.943427,50.520605,imprecise,uncertain,hamburgian,surface,1,1,1,1,0,0,1,5,"Site destroyed by later settlements and mixed with younger material, survey research – shouldered point (n=3)",Bobrowski & Sobkowiak-Tabaka 2006; Burdukiewicz 1986: 251
201,Obszruta,RU,22.504969,54.756607,imprecise,uncertain,hamburgian,surface,1,1,0,1,1,0,1,5,Spearhead from aurochs bone (Bos primigenius) – most probably mesolithic and not Hamburgian!,Bobrowski & Sobkowiak-Tabaka 2006
202,Wysokawa,RU,21.110099,54.856196,imprecise,uncertain,hamburgian,surface,1,1,0,1,1,0,1,5,Fragment of reindeer antler with traces of incision,Bobrowski & Sobkowiak-Tabaka 2006
203,Moelleroed,SE,13.694993,56.158842,precise,uncertain,hamburgian,excavation,3,2,2,1,0,0,1,9,"Have not counted the tanged points here as Hamburgian, very doubtful of this site",Larsson 1996
204,Sapanow,UA,25.672558,50.147694,imprecise,uncertain,hamburgian,surface,1,1,0,1,0,0,1,4,Shouldered point (n=1),Bobrowski & Sobkowiak-Tabaka 2006